{"type": "FeatureCollection", "features": [{"type": "Feature", "properties": {"Date (diffusion)": "27.08.2022", "Lieux": "RIVENTOSA", "Titre": "Riventosa", "Durée / Pages": "12'12\"", "Matériel": "MN,4258608", "__placement": "centroide_commune", "Commune_match": "riventosa"}, "geometry": {"type": "Point", "coordinates": [9.202441188283892, 42.24781740992475]}}, {"type": "Feature", "properties": {"Date (diffusion)": "27.08.2022", "Lieux": "ALTIANI", "Titre": "Altiani", "Durée / Pages": "23'40\"", "Matériel": "MN,4258605", "__placement": "centroide_commune", "Commune_match": "altiani"}, "geometry": {"type": "Point", "coordinates": [9.278319265957027, 42.21945025185009]}}, {"type": "Feature", "properties": {"Date (diffusion)": "27.08.2022", "Lieux": "FORTIN DE PASCIOLA,VIVARIO CORSE", "Titre": "fortin de Pasciola", "Durée / Pages": "5'14\"", "Matériel": "MN,4258620", "__placement": "centroide_commune", "Commune_match": "vivario"}, "geometry": {"type": "Point", "coordinates": [9.12065597631382, 42.15238131884848]}}, {"type": "Feature", "properties": {"Date (diffusion)": "26.08.2022", "Lieux": "BOCOGNANO", "Titre": "Bocognano", "Durée / Pages": "10'48''", "Matériel": "MN,4258166", "__placement": "centroide_commune", "Commune_match": "bocognano"}, "geometry": {"type": "Point", "coordinates": [9.071005540026851, 42.088742591859386]}}, {"type": "Feature", "properties": {"Date (diffusion)": "23.08.2022", "Lieux": "OLMETO", "Titre": "l'église Sainte Marie à Olmeto", "Durée / Pages": "4'33\"", "Matériel": "MN,4256848", "__placement": "centroide_commune", "Commune_match": "olmeto"}, "geometry": {"type": "Point", "coordinates": [8.904828861784903, 41.71205630657972]}}, {"type": "Feature", "properties": {"Date (diffusion)": "23.08.2022", "Lieux": "PLACE PORTA,SARTENE", "Titre": "la Place Porta à Sartène", "Durée / Pages": "8'49\"", "Matériel": "MN,4256868", "__placement": "centroide_commune", "Commune_match": "sartene"}, "geometry": {"type": "Point", "coordinates": [8.936256472932465, 41.57229436133724]}}, {"type": "Feature", "properties": {"Date (diffusion)": "23.08.2022", "Lieux": "TOUR DE LA CALANCA,OLMETO", "Titre": "la Tour de la Calanca", "Durée / Pages": "6'11\"", "Matériel": "MN,4256892", "__placement": "centroide_commune", "Commune_match": "olmeto"}, "geometry": {"type": "Point", "coordinates": [8.904828861784903, 41.71205630657972]}}, {"type": "Feature", "properties": {"Date (diffusion)": "23.08.2022", "Lieux": "MUSEE DE LA PREHISTOIRE,SARTENE", "Titre": "musée de la préhistoire de Sartène", "Durée / Pages": "3'46\"", "Matériel": "MN,4256801", "__placement": "centroide_commune", "Commune_match": "sartene"}, "geometry": {"type": "Point", "coordinates": [8.936256472932465, 41.57229436133724]}}, {"type": "Feature", "properties": {"Date (diffusion)": "29.07.2022", "Lieux": "EVISA", "Titre": "Evisa", "Durée / Pages": "8'44\"", "Matériel": "MN,4248135", "__placement": "centroide_commune", "Commune_match": "evisa"}, "geometry": {"type": "Point", "coordinates": [8.820395523614208, 42.28524493098053]}}, {"type": "Feature", "properties": {"Date (diffusion)": "29.07.2022", "Lieux": "CRISTINACCE", "Titre": "Cristinacce", "Durée / Pages": "10'54\"", "Matériel": "MN,4248134", "__placement": "centroide_commune", "Commune_match": "cristinacce"}, "geometry": {"type": "Point", "coordinates": [8.85509204955514, 42.24340127280418]}}, {"type": "Feature", "properties": {"Date (diffusion)": "22.07.2022", "Lieux": "ANTISANTI", "Titre": "Antisanti", "Durée / Pages": "21'26\"", "Matériel": "MN,4245709", "__placement": "centroide_commune", "Commune_match": "antisanti"}, "geometry": {"type": "Point", "coordinates": [9.384070861922645, 42.15623748052644]}}, {"type": "Feature", "properties": {"Date (diffusion)": "21.07.2022", "Lieux": "BARRAGE DE TOLLA", "Titre": "barrage de Tolla", "Durée / Pages": "8'20\"", "Matériel": "MN,4250207", "__placement": "centroide_commune", "Commune_match": "tolla"}, "geometry": {"type": "Point", "coordinates": [8.96901632753138, 41.96820665995138]}}, {"type": "Feature", "properties": {"Date (diffusion)": "20.07.2022", "Lieux": "CHIATRA", "Titre": "barrage d'Alisgiani", "Durée / Pages": "11'01\"", "Matériel": "MN,4250205", "__placement": "centroide_commune", "Commune_match": "chiatra"}, "geometry": {"type": "Point", "coordinates": [9.488667262015776, 42.28793158596748]}}, {"type": "Feature", "properties": {"Date (diffusion)": "20.07.2022", "Lieux": "PIETRICAGGIO", "Titre": "Pietracaggio", "Durée / Pages": "10'39\"", "Matériel": "MN,4244662", "__placement": "centroide_commune", "Commune_match": "pietricaggio"}, "geometry": {"type": "Point", "coordinates": [9.376888678191259, 42.329239995388974]}}, {"type": "Feature", "properties": {"Date (diffusion)": "20.07.2022", "Lieux": "PORT DE TOGA BASTIA", "Titre": "port de Toga à Bastia", "Durée / Pages": "7'36\"", "Matériel": "MN,4244693", "__placement": "centroide_commune", "Commune_match": "bastia"}, "geometry": {"type": "Point", "coordinates": [9.425021982794567, 42.68647676415093]}}, {"type": "Feature", "properties": {"Date (diffusion)": "19.07.2022", "Lieux": "CALACUCCIA", "Titre": "Calacuccia du lac et des rivières en aval", "Durée / Pages": "13'07\"", "Matériel": "MN,4244212", "__placement": "centroide_commune", "Commune_match": "calacuccia"}, "geometry": {"type": "Point", "coordinates": [9.03384662554036, 42.323279546594755]}}, {"type": "Feature", "properties": {"Date (diffusion)": "19.07.2022", "Lieux": "MURATO", "Titre": "l'église Saint Michel à Murato", "Durée / Pages": "13'09\"", "Matériel": "MN,4243821", "__placement": "centroide_commune", "Commune_match": "murato"}, "geometry": {"type": "Point", "coordinates": [9.327048845391666, 42.5671886674607]}}, {"type": "Feature", "properties": {"Date (diffusion)": "19.07.2022", "Lieux": "RUTALI", "Titre": "la chapelle Santa Chjara à Rutali", "Durée / Pages": "6'49\"", "Matériel": "MN,4243820", "__placement": "centroide_commune", "Commune_match": "rutali"}, "geometry": {"type": "Point", "coordinates": [9.381603530297792, 42.58273149810216]}}, {"type": "Feature", "properties": {"Date (diffusion)": "19.07.2022", "Lieux": "OCANA CORSE", "Titre": "Ocana et élevage de chèvres", "Durée / Pages": "9'28\"", "Matériel": "MN,4244318", "__placement": "centroide_commune", "Commune_match": "ocana"}, "geometry": {"type": "Point", "coordinates": [8.909891150611461, 41.95039375491497]}}, {"type": "Feature", "properties": {"Date (diffusion)": "18.07.2022", "Lieux": "OLETTA", "Titre": "Musée d'Art Sacré à Oletta", "Durée / Pages": "12'56\"", "Matériel": "MN,4243799", "__placement": "centroide_commune", "Commune_match": "oletta"}, "geometry": {"type": "Point", "coordinates": [9.333211699471939, 42.64162558123457]}}, {"type": "Feature", "properties": {"Date (diffusion)": "18.07.2022", "Lieux": "CALACUCCIA", "Titre": "barrage de Calacuccia", "Durée / Pages": "12'29\"", "Matériel": "MN,4250211", "__placement": "centroide_commune", "Commune_match": "calacuccia"}, "geometry": {"type": "Point", "coordinates": [9.03384662554036, 42.323279546594755]}}, {"type": "Feature", "properties": {"Date (diffusion)": "18.07.2022", "Lieux": "RUTALI", "Titre": "Rutali", "Durée / Pages": "10'09\"", "Matériel": "MN,4243819", "__placement": "centroide_commune", "Commune_match": "rutali"}, "geometry": {"type": "Point", "coordinates": [9.381603530297792, 42.58273149810216]}}, {"type": "Feature", "properties": {"Date (diffusion)": "18.07.2022", "Lieux": "RUTALI", "Titre": "une pagliaghji à Rutali", "Durée / Pages": "6'51\"", "Matériel": "MN,4243860", "__placement": "centroide_commune", "Commune_match": "rutali"}, "geometry": {"type": "Point", "coordinates": [9.381603530297792, 42.58273149810216]}}, {"type": "Feature", "properties": {"Date (diffusion)": "16.07.2022", "Lieux": "BONIFACIO", "Titre": "Bonifacio", "Durée / Pages": "1'07\"", "Matériel": "MN,4243033", "__placement": "centroide_commune", "Commune_match": "bonifacio"}, "geometry": {"type": "Point", "coordinates": [9.184505493591537, 41.43591397708673]}}, {"type": "Feature", "properties": {"Date (diffusion)": "16.07.2022", "Lieux": "PIANELLO,CORSE", "Titre": "Pianello et de l'église de Pianello", "Durée / Pages": "7'29\"", "Matériel": "MN,4243148", "__placement": "centroide_commune", "Commune_match": "pianello"}, "geometry": {"type": "Point", "coordinates": [9.3564857511019, 42.297433964079666]}}, {"type": "Feature", "properties": {"Date (diffusion)": "16.07.2022", "Lieux": "MUSEE D'ARCHEOLOGIE,ALERIA", "Titre": "Fort de Matra à Aléria", "Durée / Pages": "16'10\"", "Matériel": "MN,4243128", "__placement": "centroide_commune", "Commune_match": "aleria"}, "geometry": {"type": "Point", "coordinates": [9.495644637631317, 42.10591039781363]}}, {"type": "Feature", "properties": {"Date (diffusion)": "16.07.2022", "Lieux": "FARINOLE", "Titre": "la mine de Farinole", "Durée / Pages": "5'41\"", "Matériel": "MN,4243088", "__placement": "centroide_commune", "Commune_match": "farinole"}, "geometry": {"type": "Point", "coordinates": [9.36547056877364, 42.72982986146207]}}, {"type": "Feature", "properties": {"Date (diffusion)": "11.07.2022", "Lieux": "CASAMACCIOLI", "Titre": "Casamaccioli", "Durée / Pages": "5'13\"", "Matériel": "MN,4241235", "__placement": "centroide_commune", "Commune_match": "casamaccioli"}, "geometry": {"type": "Point", "coordinates": [8.995084094265213, 42.28288021308781]}}, {"type": "Feature", "properties": {"Date (diffusion)": "11.07.2022", "Lieux": "QUENZA", "Titre": "Quenza", "Durée / Pages": "1'04\"", "Matériel": "MN,4241219", "__placement": "centroide_commune", "Commune_match": "quenza"}, "geometry": {"type": "Point", "coordinates": [9.200954267686143, 41.8077583669073]}}, {"type": "Feature", "properties": {"Date (diffusion)": "11.07.2022", "Lieux": "PIANA", "Titre": "Piana", "Durée / Pages": "4'25\"", "Matériel": "MN,4241192", "__placement": "centroide_commune", "Commune_match": "piana"}, "geometry": {"type": "Point", "coordinates": [8.62801432741886, 42.22606159656235]}}, {"type": "Feature", "properties": {"Date (diffusion)": "11.07.2022", "Lieux": "NONZA", "Titre": "Nonza", "Durée / Pages": "10'19\"", "Matériel": "MN,4241043", "__placement": "centroide_commune", "Commune_match": "nonza"}, "geometry": {"type": "Point", "coordinates": [9.354421084284061, 42.78829846704356]}}, {"type": "Feature", "properties": {"Date (diffusion)": "06.07.2022", "Lieux": "VIEILLE VILLE,AJACCIO", "Titre": "Ajaccio dans la vieille ville", "Durée / Pages": "9'54\"", "Matériel": "MN,4238954", "__placement": "centroide_commune", "Commune_match": "ajaccio"}, "geometry": {"type": "Point", "coordinates": [8.701324680752496, 41.93479298423615]}}, {"type": "Feature", "properties": {"Date (diffusion)": "30.06.2022", "Lieux": "CALANCHES DE PIANA", "Titre": "Calanques de Piana", "Durée / Pages": "12'36\"", "Matériel": "MN,4239003", "__placement": "centroide_commune", "Commune_match": "piana"}, "geometry": {"type": "Point", "coordinates": [8.62801432741886, 42.22606159656235]}}, {"type": "Feature", "properties": {"Date (diffusion)": "23.06.2022", "Lieux": "ROGLIANO,CORSE,Pino", "Titre": "Rogliano et maisons d'américains", "Durée / Pages": "4'54\"", "Matériel": "MN,4231367", "__placement": "centroide_commune", "Commune_match": "rogliano"}, "geometry": {"type": "Point", "coordinates": [9.425398902154097, 42.97205091601661]}}, {"type": "Feature", "properties": {"Date (diffusion)": "23.06.2022", "Lieux": "PORT DE CENTURI CORSE", "Titre": "Centuri et du port", "Durée / Pages": "12'44\"", "Matériel": "MN,4232690", "__placement": "centroide_commune", "Commune_match": "centuri"}, "geometry": {"type": "Point", "coordinates": [9.364498274824243, 42.967185388390845]}}, {"type": "Feature", "properties": {"Date (diffusion)": "22.06.2022", "Lieux": "MURATO", "Titre": "Murato", "Durée / Pages": "4'04\"", "Matériel": "MN,4231375", "__placement": "centroide_commune", "Commune_match": "murato"}, "geometry": {"type": "Point", "coordinates": [9.327048845391666, 42.5671886674607]}}, {"type": "Feature", "properties": {"Date (diffusion)": "22.06.2022", "Lieux": "CALANCHES DE PIANA", "Titre": "Calanches de Piana", "Durée / Pages": "11'18\"", "Matériel": "MN,4231370", "__placement": "centroide_commune", "Commune_match": "piana"}, "geometry": {"type": "Point", "coordinates": [8.62801432741886, 42.22606159656235]}}, {"type": "Feature", "properties": {"Date (diffusion)": "21.06.2022", "Lieux": "BASTELICA", "Titre": "Bastelica", "Durée / Pages": "12'58\"", "Matériel": "MN,4231347", "__placement": "centroide_commune", "Commune_match": "bastelica"}, "geometry": {"type": "Point", "coordinates": [9.048617710945859, 41.988064202466944]}}, {"type": "Feature", "properties": {"Date (diffusion)": "21.06.2022", "Lieux": "FRANCE 3 VIA STELLA,AJACCIO", "Titre": "Locaux de France 3 ViaStella à Ajaccio", "Durée / Pages": "18'26\"", "Matériel": "MN,4231075", "__placement": "centroide_commune", "Commune_match": "ajaccio"}, "geometry": {"type": "Point", "coordinates": [8.701324680752496, 41.93479298423615]}}, {"type": "Feature", "properties": {"Date (diffusion)": "20.06.2022", "Lieux": "FIGARI,Figari", "Titre": "des vignes et champs aux alentours", "Durée / Pages": "16'04\"", "Matériel": "MN,4230670", "__placement": "centroide_commune", "Commune_match": "figari"}, "geometry": {"type": "Point", "coordinates": [9.120583147067386, 41.51629165442777]}}, {"type": "Feature", "properties": {"Date (diffusion)": "14.06.2022", "Lieux": "CORTE", "Titre": "Corte", "Durée / Pages": "1'10\"", "Matériel": "MN,4226000", "__placement": "centroide_commune", "Commune_match": "corte"}, "geometry": {"type": "Point", "coordinates": [9.082894162119654, 42.270069872045816]}}, {"type": "Feature", "properties": {"Date (diffusion)": "15.05.2021", "Lieux": "BASTIA", "Titre": "Bastia", "Durée / Pages": "9'14\"", "Matériel": "MN,3964819", "__placement": "centroide_commune", "Commune_match": "bastia"}, "geometry": {"type": "Point", "coordinates": [9.425021982794567, 42.68647676415093]}}, {"type": "Feature", "properties": {"Date (diffusion)": "15.05.2021", "Lieux": "CENTRE D'ENFOUISSEMENT VIGGIANELLO", "Titre": "Centre d'enfouissement de Viggianello", "Durée / Pages": "4'33\"", "Matériel": "MN,3964812", "__placement": "centroide_commune", "Commune_match": "viggianello"}, "geometry": {"type": "Point", "coordinates": [8.945305436012744, 41.669170435139456]}}, {"type": "Feature", "properties": {"Date (diffusion)": "14.12.2020", "Lieux": "LUCCIANA", "Titre": "Lucciana", "Durée / Pages": "21'25\"", "Matériel": "MN,3883956", "__placement": "centroide_commune", "Commune_match": "lucciana"}, "geometry": {"type": "Point", "coordinates": [9.473795962009975, 42.541443656137304]}}, {"type": "Feature", "properties": {"Date (diffusion)": "01.08.2020", "Lieux": "GALERIA CORSE,la mine de l'Argentella en Balagne", "Titre": "6'03''", "Durée / Pages": "RU", "Matériel": "RUA_DRONE_3749223_S_MINE_ARGENTELLA", "__placement": "centroide_commune", "Commune_match": "galeria"}, "geometry": {"type": "Point", "coordinates": [8.70709703865816, 42.40820587089869]}}, {"type": "Feature", "properties": {"Date (diffusion)": "30.07.2020", "Lieux": "FARINOLE,l'ancienne mine de Farinole", "Titre": "2'22\"", "Durée / Pages": "RU", "Matériel": "RUA_DRONE_3749218_S_MINE_FARINOLE", "__placement": "centroide_commune", "Commune_match": "farinole"}, "geometry": {"type": "Point", "coordinates": [9.36547056877364, 42.72982986146207]}}, {"type": "Feature", "properties": {"Date (diffusion)": "29.07.2020", "Lieux": "MERIA,La mine d'antimoine de MERIA", "Titre": "4'39\"", "Durée / Pages": "RU", "Matériel": "RUA_DRONE_3749225_S_MINE_MERIA", "__placement": "centroide_commune", "Commune_match": "meria"}, "geometry": {"type": "Point", "coordinates": [9.43681747279001, 42.92000199877087]}}, {"type": "Feature", "properties": {"Date (diffusion)": "28.07.2020", "Lieux": "MATRA-CORSE,l'ancienne mine d'Arsenic", "Titre": "2'35\"", "Durée / Pages": "RU", "Matériel": "RUA_DRONE_ 3749224_S_MINE_MATRA", "__placement": "centroide_commune", "Commune_match": "matra"}, "geometry": {"type": "Point", "coordinates": [9.387571035087975, 42.283230371945]}}, {"type": "Feature", "properties": {"Date (diffusion)": "27.07.2020", "Lieux": "MINE GHISONI,La mine argentifère et de cuivre de", "Titre": "3'04''", "Durée / Pages": "RU", "Matériel": "RUA_DRONE_3749222_ S_MINE_GHISONI", "__placement": "centroide_commune", "Commune_match": "ghisoni"}, "geometry": {"type": "Point", "coordinates": [9.210270129427105, 42.09085880989466]}}, {"type": "Feature", "properties": {"Date (diffusion)": "17.04.2020", "Lieux": "AJACCIO,Ajaccio pendant le confinement", "Titre": "35'34''", "Durée / Pages": "RU", "Matériel": "RUA_BAB_DRONE_CONFINEMENT_AJACCIO", "__placement": "centroide_commune", "Commune_match": "ajaccio"}, "geometry": {"type": "Point", "coordinates": [8.701324680752496, 41.93479298423615]}}, {"type": "Feature", "properties": {"Date (diffusion)": "12.02.2020", "Lieux": "AJACCIO,Ajaccio 2020", "Titre": "28'45''", "Durée / Pages": "RU", "Matériel": "BAB_DRONE_AJACCIO_2020", "__placement": "centroide_commune", "Commune_match": "ajaccio"}, "geometry": {"type": "Point", "coordinates": [8.701324680752496, 41.93479298423615]}}, {"type": "Feature", "properties": {"Date (diffusion)": "12.02.2020", "Lieux": "BIGUGLIA,Biguglia 2020", "Titre": "22'30\"", "Durée / Pages": "RU", "Matériel": "BAB_DRONE_BIGUGLIA_2020", "__placement": "centroide_commune", "Commune_match": "biguglia"}, "geometry": {"type": "Point", "coordinates": [9.440484446232615, 42.61642121844492]}}, {"type": "Feature", "properties": {"Date (diffusion)": "12.02.2020", "Lieux": "CALVI-ARRONDISSEMENT,Calvi 2020", "Titre": "21'44\"", "Durée / Pages": "RU", "Matériel": "BAB_DRONE_CALVI_2020", "__placement": "centroide_commune", "Commune_match": "calvi"}, "geometry": {"type": "Point", "coordinates": [8.759547352999025, 42.54557113808499]}}, {"type": "Feature", "properties": {"Date (diffusion)": "12.02.2020", "Lieux": "SARTENE,Sartène 2020", "Titre": "15'24\"", "Durée / Pages": "RU", "Matériel": "BAB_DRONE_SARTENE_2020", "__placement": "centroide_commune", "Commune_match": "sartene"}, "geometry": {"type": "Point", "coordinates": [8.936256472932465, 41.57229436133724]}}, {"type": "Feature", "properties": {"Date (diffusion)": "28.01.2020", "Lieux": "LUCCIANA,Lucciana", "Titre": "56'45\"", "Durée / Pages": "RU", "Matériel": "RUB_DRONE_LUCCIANA_CORTE", "__placement": "centroide_commune", "Commune_match": "lucciana"}, "geometry": {"type": "Point", "coordinates": [9.473795962009975, 42.541443656137304]}}, {"type": "Feature", "properties": {"Date (diffusion)": "20.01.2020", "Lieux": "BASTIA,Bastia", "Titre": "45'43\"", "Durée / Pages": "RU", "Matériel": "RUB_DRONE_BASTIA_IN_CAMPAGNA", "__placement": "centroide_commune", "Commune_match": "bastia"}, "geometry": {"type": "Point", "coordinates": [9.425021982794567, 42.68647676415093]}}, {"type": "Feature", "properties": {"Date (diffusion)": "01.06.2019", "Lieux": "GOLFE D\"AJACCIO,Le golfe d'Ajaccio", "Titre": "10'00\"", "Durée / Pages": "RU", "Matériel": "RUA_BAB_ILLUSTR_DRONE_GOLFE_AJACCIO", "__placement": "centroide_commune", "Commune_match": "ajaccio"}, "geometry": {"type": "Point", "coordinates": [8.701324680752496, 41.93479298423615]}}, {"type": "Feature", "properties": {"Date (diffusion)": "06.11.2018", "Lieux": "ROUTE DES SANGUINAIRES,AJACCIO,le littoral des Sanguinaires après la tempête Adrian", "Titre": "5'43''", "Durée / Pages": "RU", "Matériel": "RUA_DRONE_3304396_S_POINT_SINISTRES_ADRIAN", "__placement": "centroide_commune", "Commune_match": "ajaccio"}, "geometry": {"type": "Point", "coordinates": [8.701324680752496, 41.93479298423615]}}, {"type": "Feature", "properties": {"Date (diffusion)": "28.08.2015", "Lieux": "CITADELLE BONIFACIO", "Titre": "port et de la citadelle de Bonifacio", "Durée / Pages": "7'34\"", "Matériel": "MN,4139565", "__placement": "centroide_commune", "Commune_match": "bonifacio"}, "geometry": {"type": "Point", "coordinates": [9.184505493591537, 41.43591397708673]}}, {"type": "Feature", "properties": {"Date (diffusion)": "29.08.2022", "Lieux": "FOZZANO", "Titre": "Fozzano", "Durée / Pages": "13'09''", "Matériel": "MN,4258624", "__placement": "centroide_commune", "Commune_match": "fozzano"}, "geometry": {"type": "Point", "coordinates": [8.987710618394809, 41.69878261981636]}}, {"type": "Feature", "properties": {"Date (diffusion)": "29.08.2022", "Lieux": "CENTRALE DU VAZZIO,AJACCIO", "Titre": "la Centrale du Vazzio", "Durée / Pages": "26'16''", "Matériel": "MN,4258615", "__placement": "centroide_commune", "Commune_match": "ajaccio"}, "geometry": {"type": "Point", "coordinates": [8.701324680752496, 41.93479298423615]}}, {"type": "Feature", "properties": {"Date (diffusion)": "29.08.2022", "Lieux": "PIETRALBA", "Titre": "Pietralba", "Durée / Pages": "2'28''", "Matériel": "MN,4259465", "__placement": "centroide_commune", "Commune_match": "pietralba"}, "geometry": {"type": "Point", "coordinates": [9.183258465842899, 42.54264932595158]}}, {"type": "Feature", "properties": {"Date (diffusion)": "29.08.2022", "Lieux": "GHISONI", "Titre": "Ghisoni", "Durée / Pages": "13'20''", "Matériel": "MN,4259521", "__placement": "centroide_commune", "Commune_match": "ghisoni"}, "geometry": {"type": "Point", "coordinates": [9.210270129427105, 42.09085880989466]}}, {"type": "Feature", "properties": {"Date (diffusion)": "29.08.2022", "Lieux": "LAC DE TOLLA", "Titre": "Lac de Tolla et village", "Durée / Pages": "4'48''", "Matériel": "MN,4259524", "__placement": "centroide_commune", "Commune_match": "tolla"}, "geometry": {"type": "Point", "coordinates": [8.96901632753138, 41.96820665995138]}}, {"type": "Feature", "properties": {"Date (diffusion)": "27.08.2022", "Lieux": "GARE DE CORTE", "Titre": "la gare de Corte", "Durée / Pages": "6'19''", "Matériel": "MN,4258622", "__placement": "centroide_commune", "Commune_match": "corte"}, "geometry": {"type": "Point", "coordinates": [9.082894162119654, 42.270069872045816]}}, {"type": "Feature", "properties": {"Date (diffusion)": "30.08.2022", "Lieux": "LYCEE AGRICOLE DE SARTENE", "Titre": "Lycée Agricole de Sartène", "Durée / Pages": "5'43''", "Matériel": "MN,4260035", "__placement": "centroide_commune", "Commune_match": "sartene"}, "geometry": {"type": "Point", "coordinates": [8.936256472932465, 41.57229436133724]}}, {"type": "Feature", "properties": {"Date (diffusion)": "30.08.2022", "Lieux": "COUVENT DE LINGUIZZETTA", "Titre": "Couvent de Linguizzetta", "Durée / Pages": "12'08''", "Matériel": "MN,4260040", "__placement": "centroide_commune", "Commune_match": "linguizzetta"}, "geometry": {"type": "Point", "coordinates": [9.510244211871811, 42.2176449273795]}}, {"type": "Feature", "properties": {"Date (diffusion)": "30.08.2022", "Lieux": "DOMAINE DE VICO", "Titre": "Domaine de Vico Clos Venturi", "Durée / Pages": "13'30''", "Matériel": "MN,4259565", "__placement": "centroide_commune", "Commune_match": "vico"}, "geometry": {"type": "Point", "coordinates": [8.730510537391568, 42.15063856342747]}}, {"type": "Feature", "properties": {"Date (diffusion)": "30.08.2022", "Lieux": "PIETRICAGGIO", "Titre": "Pietricaggio", "Durée / Pages": "28'31''", "Matériel": "MN,4260037", "__placement": "centroide_commune", "Commune_match": "pietricaggio"}, "geometry": {"type": "Point", "coordinates": [9.376888678191259, 42.329239995388974]}}, {"type": "Feature", "properties": {"Date (diffusion)": "02.09.2022", "Lieux": "MONCALE", "Titre": "Moncale", "Durée / Pages": "9'18''", "Matériel": "MN,4262045", "__placement": "centroide_commune", "Commune_match": "moncale"}, "geometry": {"type": "Point", "coordinates": [8.819472243513367, 42.503380959171224]}}, {"type": "Feature", "properties": {"Date (diffusion)": "21.01.2021", "Lieux": "AEROPORT DE BASTIA PORETTA", "Titre": "l'Aéroport de Bastia Poretta", "Durée / Pages": "21'25''", "Matériel": "MN,3883956", "__placement": "centroide_commune", "Commune_match": "bastia"}, "geometry": {"type": "Point", "coordinates": [9.425021982794567, 42.68647676415093]}}, {"type": "Feature", "properties": {"Date (diffusion)": "12.10.2021", "Lieux": "UNIVERSITE DE CORTE", "Titre": "différents sites universitaires de Corte", "Durée / Pages": "35'24''", "Matériel": "MN,4064829", "__placement": "centroide_commune", "Commune_match": "corte"}, "geometry": {"type": "Point", "coordinates": [9.082894162119654, 42.270069872045816]}}, {"type": "Feature", "properties": {"Date (diffusion)": "19.05.2021", "Lieux": "STADE DE FURIANI", "Titre": "Stade de Furiani", "Durée / Pages": "3'14''", "Matériel": "MN,3967972", "__placement": "centroide_commune", "Commune_match": "furiani"}, "geometry": {"type": "Point", "coordinates": [9.417264755844045, 42.652341514593836]}}, {"type": "Feature", "properties": {"Date (diffusion)": "08.09.2022", "Lieux": "CARREFOUR AJACCIO", "Titre": "Carrefour de la Rocade à Ajaccio", "Durée / Pages": "2'12''", "Matériel": "MN,4266124", "__placement": "centroide_commune", "Commune_match": "ajaccio"}, "geometry": {"type": "Point", "coordinates": [8.701324680752496, 41.93479298423615]}}, {"type": "Feature", "properties": {"Date (diffusion)": "08.09.2022", "Lieux": "CITADELLE AJACCIO", "Titre": "Citadelle d'Ajaccio", "Durée / Pages": "2'54''", "Matériel": "MN,4266122", "__placement": "centroide_commune", "Commune_match": "ajaccio"}, "geometry": {"type": "Point", "coordinates": [8.701324680752496, 41.93479298423615]}}, {"type": "Feature", "properties": {"Date (diffusion)": "08.09.2022", "Lieux": "VENACO", "Titre": "Venaco", "Durée / Pages": "3'27''", "Matériel": "MN,4266097", "__placement": "centroide_commune", "Commune_match": "venaco"}, "geometry": {"type": "Point", "coordinates": [9.137541730057919, 42.213994860802806]}}, {"type": "Feature", "properties": {"Date (diffusion)": "08.09.2022", "Lieux": "PORT DE COMMERCE AJACCIO", "Titre": "Port de Commerce Quai de la Méridionale", "Durée / Pages": "9'52''", "Matériel": "MN,4266325", "__placement": "centroide_commune", "Commune_match": "ajaccio"}, "geometry": {"type": "Point", "coordinates": [8.701324680752496, 41.93479298423615]}}, {"type": "Feature", "properties": {"Date (diffusion)": "08.09.2022", "Lieux": "SALINES AJACCIO", "Titre": "le quartier des Salines à Ajaccio", "Durée / Pages": "7'35''", "Matériel": "MN,4266380", "__placement": "centroide_commune", "Commune_match": "ajaccio"}, "geometry": {"type": "Point", "coordinates": [8.701324680752496, 41.93479298423615]}}, {"type": "Feature", "properties": {"Date (diffusion)": "08.09.2022", "Lieux": "PLACE MIOT AJACCIO", "Titre": "la Place Miot et quartier des Etrangers", "Durée / Pages": "12'21''", "Matériel": "MN,4266391", "__placement": "centroide_commune", "Commune_match": "ajaccio"}, "geometry": {"type": "Point", "coordinates": [8.701324680752496, 41.93479298423615]}}, {"type": "Feature", "properties": {"Date (diffusion)": "08.09.2022", "Lieux": "FOIRE DU NIOLU CASAMACCIOLI", "Titre": "la Foire du Niolu", "Durée / Pages": "5'51''", "Matériel": "MN,4275272", "__placement": "centroide_commune", "Commune_match": "casamaccioli"}, "geometry": {"type": "Point", "coordinates": [8.995084094265213, 42.28288021308781]}}, {"type": "Feature", "properties": {"Date (diffusion)": "24.09.2022", "Lieux": "SOLAR POWER PLANT,POGGIO DI VENACO", "Titre": "la ferme solaire de Poggio-di-Venaco", "Durée / Pages": "3'31''", "Matériel": "MN,4277533", "__placement": "centroide_commune", "Commune_match": "venaco"}, "geometry": {"type": "Point", "coordinates": [9.137541730057919, 42.213994860802806]}}, {"type": "Feature", "properties": {"Date (diffusion)": "02.08.2022", "Lieux": "BONIFACIO", "Titre": "Bonifacio", "Durée / Pages": "8'09''", "Matériel": "MN,4249286", "__placement": "centroide_commune", "Commune_match": "bonifacio"}, "geometry": {"type": "Point", "coordinates": [9.184505493591537, 41.43591397708673]}}, {"type": "Feature", "properties": {"Date (diffusion)": "10.10.2022", "Lieux": "CENTRE D'ETUDES SCIENTIFIQUE GEORGE PERI", "Titre": "Centre d'Etudes Scientifiques George Peri (Université de Corse)", "Durée / Pages": "5'57''", "Matériel": "MN,4288233", "__placement": "centroide_commune", "Commune_match": "peri"}, "geometry": {"type": "Point", "coordinates": [8.911551663052482, 42.003934420022574]}}, {"type": "Feature", "properties": {"Date (diffusion)": "09.11.2022", "Lieux": "SPELONCATO", "Titre": "Speloncato", "Durée / Pages": "9'52''", "Matériel": "MN,4306477", "__placement": "centroide_commune", "Commune_match": "speloncato"}, "geometry": {"type": "Point", "coordinates": [8.969667493332175, 42.574316658635965]}}, {"type": "Feature", "properties": {"Date (diffusion)": "18.11.2022", "Lieux": "BELGODERE", "Titre": "Belgodère", "Durée / Pages": "8'28''", "Matériel": "MN,4312821", "__placement": "centroide_commune", "Commune_match": "belgodere"}, "geometry": {"type": "Point", "coordinates": [9.014295885560898, 42.60789618886524]}}, {"type": "Feature", "properties": {"Date (diffusion)": "18.11.2022", "Lieux": "SISCO", "Titre": "Sisco", "Durée / Pages": "5'55''", "Matériel": "MN,4312857", "__placement": "centroide_commune", "Commune_match": "sisco"}, "geometry": {"type": "Point", "coordinates": [9.442247316327505, 42.81447558284365]}}, {"type": "Feature", "properties": {"Date (diffusion)": "02/12/2022", "Lieux": "VIVARIO", "Titre": "Vivario", "Durée / Pages": "5'02''", "Matériel": "MN,4322725", "__placement": "centroide_commune", "Commune_match": "vivario"}, "geometry": {"type": "Point", "coordinates": [9.12065597631382, 42.15238131884848]}}, {"type": "Feature", "properties": {"Date (diffusion)": "02/12/2022", "Lieux": "LAC DE GALERIA", "Titre": "Lac de Galeria", "Durée / Pages": "1'01''", "Matériel": "MN,4322790", "__placement": "centroide_commune", "Commune_match": "galeria"}, "geometry": {"type": "Point", "coordinates": [8.70709703865816, 42.40820587089869]}}, {"type": "Feature", "properties": {"Date (diffusion)": "02.12.2022", "Lieux": "PIEDICROCE", "Titre": "Piedicroce", "Durée / Pages": "7'58''", "Matériel": "MN,4322812", "__placement": "centroide_commune", "Commune_match": "piedicroce"}, "geometry": {"type": "Point", "coordinates": [9.368110418729833, 42.38392652057988]}}, {"type": "Feature", "properties": {"Date (diffusion)": "02.12.2022", "Lieux": "BARRAGE DE LISA AJACCIO", "Titre": "barrage de Lisa à Ajaccio", "Durée / Pages": "6'25''", "Matériel": "MN,4322905", "__placement": "centroide_commune", "Commune_match": "ajaccio"}, "geometry": {"type": "Point", "coordinates": [8.701324680752496, 41.93479298423615]}}, {"type": "Feature", "properties": {"Date (diffusion)": "02.12.2022", "Lieux": "ALB\"ORU BASTIA", "Titre": "l'Alb'Oru à Bastia", "Durée / Pages": "2'16''", "Matériel": "MN,4322912", "__placement": "centroide_commune", "Commune_match": "bastia"}, "geometry": {"type": "Point", "coordinates": [9.425021982794567, 42.68647676415093]}}, {"type": "Feature", "properties": {"Date (diffusion)": "02.12.2022", "Lieux": "BRASSERIE PIETRA FURIANI", "Titre": "la brasserie Pietra à Furiani", "Durée / Pages": "3'52''", "Matériel": "MN,4322918", "__placement": "centroide_commune", "Commune_match": "furiani"}, "geometry": {"type": "Point", "coordinates": [9.417264755844045, 42.652341514593836]}}, {"type": "Feature", "properties": {"Date (diffusion)": "02.12.2022", "Lieux": "PORT DE COMMERCE BASTIA", "Titre": "Port de commerce de Bastia", "Durée / Pages": "25'41''", "Matériel": "MN,4322948", "__placement": "centroide_commune", "Commune_match": "bastia"}, "geometry": {"type": "Point", "coordinates": [9.425021982794567, 42.68647676415093]}}, {"type": "Feature", "properties": {"Date (diffusion)": "29.12.2022", "Lieux": "UNIVERSITE DE CORTE", "Titre": "sites universitaires de Corte", "Durée / Pages": "12'32''", "Matériel": "MN,4336818", "__placement": "centroide_commune", "Commune_match": "corte"}, "geometry": {"type": "Point", "coordinates": [9.082894162119654, 42.270069872045816]}}, {"type": "Feature", "properties": {"Date (diffusion)": "29.12.2022", "Lieux": "CORTE", "Titre": "Corte", "Durée / Pages": "15'08''", "Matériel": "MN,4336817", "__placement": "centroide_commune", "Commune_match": "corte"}, "geometry": {"type": "Point", "coordinates": [9.082894162119654, 42.270069872045816]}}, {"type": "Feature", "properties": {"Date (diffusion)": "29.12.2022", "Lieux": "PLACE PAOLI CORTE", "Titre": "la Place Paoli à Corte", "Durée / Pages": "", "Matériel": "MN,4336816", "__placement": "centroide_commune", "Commune_match": "corte"}, "geometry": {"type": "Point", "coordinates": [9.082894162119654, 42.270069872045816]}}, {"type": "Feature", "properties": {"Date (diffusion)": "16.01.2023", "Lieux": "HOPITAL AJACCIO STILETTO", "Titre": "l'Hôpital du Stiletto à Ajaccio", "Durée / Pages": "6'43''", "Matériel": "MN,4348528", "__placement": "centroide_commune", "Commune_match": "ajaccio"}, "geometry": {"type": "Point", "coordinates": [8.701324680752496, 41.93479298423615]}}, {"type": "Feature", "properties": {"Date (diffusion)": "01.03.2023", "Lieux": "STATION DE SKI GHISONI", "Titre": "la station de ski de Ghisoni pendant la saison d'hiver", "Durée / Pages": "4'41''", "Matériel": "MN,4374363", "__placement": "centroide_commune", "Commune_match": "ghisoni"}, "geometry": {"type": "Point", "coordinates": [9.210270129427105, 42.09085880989466]}}, {"type": "Feature", "properties": {"Date (diffusion)": "08.03.2023", "Lieux": "D80 NONZA", "Titre": "la route D80 dans le Cap Corse", "Durée / Pages": "14'02''", "Matériel": "MN,4378778", "__placement": "centroide_commune", "Commune_match": "nonza"}, "geometry": {"type": "Point", "coordinates": [9.354421084284061, 42.78829846704356]}}, {"type": "Feature", "properties": {"Date (diffusion)": "17.03.2023", "Lieux": "CENTRE HOSPITALIER DE BASTIA", "Titre": "l'Hopital de Bastia", "Durée / Pages": "4'58''", "Matériel": "MN,4385066", "__placement": "centroide_commune", "Commune_match": "bastia"}, "geometry": {"type": "Point", "coordinates": [9.425021982794567, 42.68647676415093]}}, {"type": "Feature", "properties": {"Date (diffusion)": "20.06.2022", "Lieux": "BONIFACIO", "Titre": "Bonifacio", "Durée / Pages": "8'10''", "Matériel": "MN,4249286", "__placement": "centroide_commune", "Commune_match": "bonifacio"}, "geometry": {"type": "Point", "coordinates": [9.184505493591537, 41.43591397708673]}}, {"type": "Feature", "properties": {"Date (diffusion)": "09.04.2023", "Lieux": "CORTE", "Titre": "Corte", "Durée / Pages": "9'49''", "Matériel": "MN,4399779", "__placement": "centroide_commune", "Commune_match": "corte"}, "geometry": {"type": "Point", "coordinates": [9.082894162119654, 42.270069872045816]}}, {"type": "Feature", "properties": {"Date (diffusion)": "21.06.2023", "Lieux": "LETIA", "Titre": "Letia", "Durée / Pages": "6'35''", "Matériel": "MN,CEABRI_554", "__placement": "centroide_commune", "Commune_match": "letia"}, "geometry": {"type": "Point", "coordinates": [8.877010667713177, 42.21492807473317]}}, {"type": "Feature", "properties": {"Date (diffusion)": "21.06.2023", "Lieux": "OTA", "Titre": "Ota", "Durée / Pages": "4'27''", "Matériel": "MN,CEABRI_553", "__placement": "centroide_commune", "Commune_match": "ota"}, "geometry": {"type": "Point", "coordinates": [8.732941259367381, 42.25486645295447]}}, {"type": "Feature", "properties": {"Date (diffusion)": "20.06.2023", "Lieux": "BRANDO", "Titre": "Brando", "Durée / Pages": "2'22''", "Matériel": "MN,CEABRI_407", "__placement": "centroide_commune", "Commune_match": "brando"}, "geometry": {"type": "Point", "coordinates": [9.45074277504885, 42.77930686469201]}}, {"type": "Feature", "properties": {"Date (diffusion)": "27.06.2023", "Lieux": "EVISA", "Titre": "Evisa", "Durée / Pages": "6'05''", "Matériel": "MN,CEABRI_552", "__placement": "centroide_commune", "Commune_match": "evisa"}, "geometry": {"type": "Point", "coordinates": [8.820395523614208, 42.28524493098053]}}, {"type": "Feature", "properties": {"Date (diffusion)": "10.07.2023", "Lieux": "ORTO", "Titre": "Orto", "Durée / Pages": "2'24''", "Matériel": "MN,CEABRI_987", "__placement": "centroide_commune", "Commune_match": "orto"}, "geometry": {"type": "Point", "coordinates": [8.957410266164143, 42.19899721522998]}}, {"type": "Feature", "properties": {"Date (diffusion)": "10.07.2023", "Lieux": "COUVENT SAINT FRANCOIS VICO", "Titre": "Couvent Saint François de Vico", "Durée / Pages": "10'28''", "Matériel": "MN,CEABRI_984", "__placement": "centroide_commune", "Commune_match": "vico"}, "geometry": {"type": "Point", "coordinates": [8.730510537391568, 42.15063856342747]}}, {"type": "Feature", "properties": {"Date (diffusion)": "05.06.2023", "Lieux": "DOMAINE FRANCOIS FRANCESCHI BORGO", "Titre": "vignes à Borgo", "Durée / Pages": "5'45''", "Matériel": "MN,CEABRI_892", "__placement": "centroide_commune", "Commune_match": "borgo"}, "geometry": {"type": "Point", "coordinates": [9.456903900323832, 42.57392952115076]}}, {"type": "Feature", "properties": {"Date (diffusion)": "05.06.2023", "Lieux": "DOMAINE AGRICOLE ANGE NOEL LUIGGI ALERIA", "Titre": "champs de maïs à Aleria", "Durée / Pages": "5'22''", "Matériel": "MN,CEABRI_891", "__placement": "centroide_commune", "Commune_match": "aleria"}, "geometry": {"type": "Point", "coordinates": [9.495644637631317, 42.10591039781363]}}, {"type": "Feature", "properties": {"Date (diffusion)": "20.06.2023", "Lieux": "EGLISE SAINT BARTHELEMY DE BRANDO", "Titre": "l'église Saint Barthélémy de Brando", "Durée / Pages": "6'35''", "Matériel": "MN,CEABRI_408", "__placement": "centroide_commune", "Commune_match": "brando"}, "geometry": {"type": "Point", "coordinates": [9.45074277504885, 42.77930686469201]}}, {"type": "Feature", "properties": {"Date (diffusion)": "11.07.2023", "Lieux": "COUVENT DE PERO CASEVECCHIE", "Titre": "Couvent de Peru Casevecchie", "Durée / Pages": "1'58''", "Matériel": "MN,CEABRI_130", "__placement": "centroide_commune", "Commune_match": "casevecchie"}, "geometry": {"type": "Point", "coordinates": [9.368063521854639, 42.13553491224023]}}, {"type": "Feature", "properties": {"Date (diffusion)": "12.07.2023", "Lieux": "GARE DE BASTIA", "Titre": "la gare de Bastia", "Durée / Pages": "12'23''", "Matériel": "MN,CEABRI_1034", "__placement": "centroide_commune", "Commune_match": "bastia"}, "geometry": {"type": "Point", "coordinates": [9.425021982794567, 42.68647676415093]}}, {"type": "Feature", "properties": {"Date (diffusion)": "13.02.2023", "Lieux": "HOPITAL DU STILETTO AJACCIO", "Titre": "Nouvel hopital du Stiletto à Ajaccio de nuit", "Durée / Pages": "1'13''", "Matériel": "MN,4365757", "__placement": "centroide_commune", "Commune_match": "ajaccio"}, "geometry": {"type": "Point", "coordinates": [8.701324680752496, 41.93479298423615]}}, {"type": "Feature", "properties": {"Date (diffusion)": "13.07.2023", "Lieux": "PIETRALBA", "Titre": "Pietralba", "Durée / Pages": "7'08''", "Matériel": "MN,CEABRI_1057", "__placement": "centroide_commune", "Commune_match": "pietralba"}, "geometry": {"type": "Point", "coordinates": [9.183258465842899, 42.54264932595158]}}, {"type": "Feature", "properties": {"Date (diffusion)": "28.07.2023", "Lieux": "ASCO", "Titre": "Asco", "Durée / Pages": "7'55''", "Matériel": "MN,CEABRI_1192", "__placement": "centroide_commune", "Commune_match": "asco"}, "geometry": {"type": "Point", "coordinates": [8.99705002636687, 42.434633962874024]}}, {"type": "Feature", "properties": {"Date (diffusion)": "27.08.2023", "Lieux": "STATION DE SKI ASCO", "Titre": "la station d'Asco en été", "Durée / Pages": "9'36''", "Matériel": "MN,CEABRI_1191", "__placement": "centroide_commune", "Commune_match": "asco"}, "geometry": {"type": "Point", "coordinates": [8.99705002636687, 42.434633962874024]}}, {"type": "Feature", "properties": {"Date (diffusion)": "28.07.2023", "Lieux": "ZONZA", "Titre": "Zonza", "Durée / Pages": "5'24''", "Matériel": "MN,CEABRI_1388", "__placement": "centroide_commune", "Commune_match": "zonza"}, "geometry": {"type": "Point", "coordinates": [9.26609820826529, 41.7214066720539]}}, {"type": "Feature", "properties": {"Date (diffusion)": "21.08.2023", "Lieux": "RUSIO", "Titre": "Rusio", "Durée / Pages": "10'28''", "Matériel": "MN,CEABRI_1750", "__placement": "centroide_commune", "Commune_match": "rusio"}, "geometry": {"type": "Point", "coordinates": [9.258535622701391, 42.35377440453382]}}, {"type": "Feature", "properties": {"Date (diffusion)": "21.08.2023", "Lieux": "MOITA", "Titre": "Moita", "Durée / Pages": "3'38''", "Matériel": "MN,CEABRI_1752", "__placement": "centroide_commune", "Commune_match": "moita"}, "geometry": {"type": "Point", "coordinates": [9.410371485264676, 42.28170876145946]}}, {"type": "Feature", "properties": {"Date (diffusion)": "21.08.2023", "Lieux": "PIAZZOLE", "Titre": "Piazzole d'Orezza", "Durée / Pages": "17'27''", "Matériel": "MN,CEABRI_1753", "__placement": "centroide_commune", "Commune_match": "piazzole"}, "geometry": {"type": "Point", "coordinates": [9.40599315573075, 42.39441200088941]}}, {"type": "Feature", "properties": {"Date (diffusion)": "21.08.2023", "Lieux": "HOTEL LA SIGNORIA CALVI", "Titre": "l'Hôtel La Signoria à Calvi", "Durée / Pages": "5'49''", "Matériel": "MN,CEABRI_1756", "__placement": "centroide_commune", "Commune_match": "calvi"}, "geometry": {"type": "Point", "coordinates": [8.759547352999025, 42.54557113808499]}}, {"type": "Feature", "properties": {"Date (diffusion)": "07.06.2023", "Lieux": "CARGESE", "Titre": "Cargese", "Durée / Pages": "7'19''", "Matériel": "MN,CEABRI_1762", "__placement": "centroide_commune", "Commune_match": "cargese"}, "geometry": {"type": "Point", "coordinates": [8.62658681417397, 42.15441477885077]}}, {"type": "Feature", "properties": {"Date (diffusion)": "05.09.2023", "Lieux": "CARBUCCIA", "Titre": "Carbuccia", "Durée / Pages": "8'06''", "Matériel": "MN,CEABRI_2030", "__placement": "centroide_commune", "Commune_match": "carbuccia"}, "geometry": {"type": "Point", "coordinates": [8.936268041012221, 42.03029312077528]}}, {"type": "Feature", "properties": {"Date (diffusion)": "05.09.2023", "Lieux": "OLMETO", "Titre": "Olmeto", "Durée / Pages": "26'58''", "Matériel": "MN,CEABRI_2028", "__placement": "centroide_commune", "Commune_match": "olmeto"}, "geometry": {"type": "Point", "coordinates": [8.904828861784903, 41.71205630657972]}}, {"type": "Feature", "properties": {"Date (diffusion)": "05.09.2023", "Lieux": "PERI", "Titre": "Peri", "Durée / Pages": "10'30''", "Matériel": "MN,CEABRI_2031", "__placement": "centroide_commune", "Commune_match": "peri"}, "geometry": {"type": "Point", "coordinates": [8.911551663052482, 42.003934420022574]}}, {"type": "Feature", "properties": {"Date (diffusion)": "06.09.2023", "Lieux": "PATRIMONIO", "Titre": "Patrimonio", "Durée / Pages": "5'26''", "Matériel": "MN,CEABRI_2094", "__placement": "centroide_commune", "Commune_match": "patrimonio"}, "geometry": {"type": "Point", "coordinates": [9.36705279298152, 42.70668737016182]}}, {"type": "Feature", "properties": {"Date (diffusion)": "23.06.2022", "Lieux": "CALVI,Calvi", "Titre": "citadelle et la Madonna della Serra", "Durée / Pages": "9'50''", "Matériel": "MN,4232811", "__placement": "centroide_commune", "Commune_match": "calvi"}, "geometry": {"type": "Point", "coordinates": [8.759547352999025, 42.54557113808499]}}, {"type": "Feature", "properties": {"Date (diffusion)": "05.10.2023", "Lieux": "FOCE DI ROTA", "Titre": "hauteurs de Tolla", "Durée / Pages": "4'37''", "Matériel": "MN,CEABRI_2731", "__placement": "centroide_commune", "Commune_match": "foce"}, "geometry": {"type": "Point", "coordinates": [9.035615917146615, 41.62195306728306]}}, {"type": "Feature", "properties": {"Date (diffusion)": "12.02.2020", "Lieux": "PROPRIANO", "Titre": "BAB_DRONE_PROPIANO_2020", "Durée / Pages": "21'44\"", "Matériel": "MN,CEABRI_3296", "__placement": "centroide_commune", "Commune_match": "propriano"}, "geometry": {"type": "Point", "coordinates": [8.893788153383829, 41.65041931080592]}}, {"type": "Feature", "properties": {"Date (diffusion)": "06.09.2023", "Lieux": "LURI", "Titre": "Luri", "Durée / Pages": "12'34''", "Matériel": "MN,CEABRI_2085", "__placement": "centroide_commune", "Commune_match": "luri"}, "geometry": {"type": "Point", "coordinates": [9.409878979798053, 42.89344390138773]}}, {"type": "Feature", "properties": {"Date (diffusion)": "06.09.2023", "Lieux": "CHAPELLE FIENU LURI", "Titre": "la chapelle de Fienu à Luri", "Durée / Pages": "4'07''", "Matériel": "MN,CEABRI_2086", "__placement": "centroide_commune", "Commune_match": "luri"}, "geometry": {"type": "Point", "coordinates": [9.409878979798053, 42.89344390138773]}}, {"type": "Feature", "properties": {"Date (diffusion)": "23.10.2023", "Lieux": "VESCOVATO CORSE", "Titre": "Vescovato", "Durée / Pages": "12'32''", "Matériel": "MN,CEABRI_3481", "__placement": "centroide_commune", "Commune_match": "vescovato"}, "geometry": {"type": "Point", "coordinates": [9.473275941559137, 42.51559987595107]}}, {"type": "Feature", "properties": {"Date (diffusion)": "27.08.2023", "Lieux": "CHAMBRE D'AGRICULTURE MSA VESCOVATO", "Titre": "Chambre d'Agriculture de Haute Corse à Vescovato", "Durée / Pages": "6'12''", "Matériel": "MN,CEABRI_3478", "__placement": "centroide_commune", "Commune_match": "vescovato"}, "geometry": {"type": "Point", "coordinates": [9.473275941559137, 42.51559987595107]}}, {"type": "Feature", "properties": {"Date (diffusion)": "31.10.2023", "Lieux": "LOPIGNA", "Titre": "Lopigna", "Durée / Pages": "2'37''", "Matériel": "CEABRI_3671", "__placement": "centroide_commune", "Commune_match": "lopigna"}, "geometry": {"type": "Point", "coordinates": [8.854125648352824, 42.090195181597664]}}, {"type": "Feature", "properties": {"Date (diffusion)": "06.12.2023", "Lieux": "CAMPO", "Titre": "Campo", "Durée / Pages": "6'49''", "Matériel": "CEABRI_4675", "__placement": "centroide_commune", "Commune_match": "campo"}, "geometry": {"type": "Point", "coordinates": [9.00098278992288, 41.89069181846381]}}, {"type": "Feature", "properties": {"Date (diffusion)": "06.12.2023", "Lieux": "ZEVACO", "Titre": "Zevaco", "Durée / Pages": "5'14''", "Matériel": "CEABRI_4678", "__placement": "centroide_commune", "Commune_match": "zevaco"}, "geometry": {"type": "Point", "coordinates": [9.04464641352335, 41.88611154816992]}}, {"type": "Feature", "properties": {"Date (diffusion)": "15.01.2024", "Lieux": "PETRETO-BICCHISANO", "Titre": "Petreto-Bicchisano", "Durée / Pages": "13'47''", "Matériel": "CEABRI_5594", "__placement": "centroide_commune", "Commune_match": "petreto-bicchisano"}, "geometry": {"type": "Point", "coordinates": [8.969533931298791, 41.77036170370949]}}, {"type": "Feature", "properties": {"Date (diffusion)": "15.01.2024", "Lieux": "CASALABRIVA", "Titre": "Casalabriva", "Durée / Pages": "14'45''", "Matériel": "CEABRI_5648", "__placement": "centroide_commune", "Commune_match": "casalabriva"}, "geometry": {"type": "Point", "coordinates": [8.924865701147379, 41.760410561182844]}}, {"type": "Feature", "properties": {"Date (diffusion)": "26.12.2023", "Lieux": "ZONZA", "Titre": "Zonza en hiver", "Durée / Pages": "13'48''", "Matériel": "CEABRI_5184", "__placement": "centroide_commune", "Commune_match": "zonza"}, "geometry": {"type": "Point", "coordinates": [9.26609820826529, 41.7214066720539]}}, {"type": "Feature", "properties": {"Date (diffusion)": "26.12.2023", "Lieux": "SERRA-DI-SCOPAMENE", "Titre": "Serra di Scopamene en hiver", "Durée / Pages": "16'39''", "Matériel": "CEABRI_5185", "__placement": "centroide_commune", "Commune_match": "serra-di-scopamene"}, "geometry": {"type": "Point", "coordinates": [9.10982817345353, 41.77888717947291]}}, {"type": "Feature", "properties": {"Date (diffusion)": "16.01.2024", "Lieux": "SOLLACARO", "Titre": "Sollacaro", "Durée / Pages": "12'44''", "Matériel": "CEABRI_5668", "__placement": "centroide_commune", "Commune_match": "sollacaro"}, "geometry": {"type": "Point", "coordinates": [8.88010222678789, 41.74177076069176]}}, {"type": "Feature", "properties": {"Date (diffusion)": "16.01.2024", "Lieux": "TOUR DE LA PARATA", "Titre": "Tour de la Parata et Iles Sanguinaires (temps nuageux)", "Durée / Pages": "14'04''", "Matériel": "CEABRI_5677", "__placement": "centroide_commune", "Commune_match": "parata"}, "geometry": {"type": "Point", "coordinates": [9.41911898278031, 42.36717168929698]}}, {"type": "Feature", "properties": {"Date (diffusion)": "19.01.2024", "Lieux": "POGGIO DI VENACO", "Titre": "Poggio di Venaco", "Durée / Pages": "8'13''", "Matériel": "CEABRI_5758", "__placement": "centroide_commune", "Commune_match": "venaco"}, "geometry": {"type": "Point", "coordinates": [9.137541730057919, 42.213994860802806]}}, {"type": "Feature", "properties": {"Date (diffusion)": "19.01.2024", "Lieux": "VENACO", "Titre": "Venaco", "Durée / Pages": "12'53''", "Matériel": "CEABRI_5757", "__placement": "centroide_commune", "Commune_match": "venaco"}, "geometry": {"type": "Point", "coordinates": [9.137541730057919, 42.213994860802806]}}, {"type": "Feature", "properties": {"Date (diffusion)": "19.01.2024", "Lieux": "CASANOVA", "Titre": "Casanova", "Durée / Pages": "9'14''", "Matériel": "CEABRI_5759", "__placement": "centroide_commune", "Commune_match": "casanova"}, "geometry": {"type": "Point", "coordinates": [9.151844727395526, 42.26167077702619]}}, {"type": "Feature", "properties": {"Date (diffusion)": "30.01.2024", "Lieux": "VICO", "Titre": "Vico", "Durée / Pages": "8'56''", "Matériel": "CEABRI_6046", "__placement": "centroide_commune", "Commune_match": "vico"}, "geometry": {"type": "Point", "coordinates": [8.730510537391568, 42.15063856342747]}}, {"type": "Feature", "properties": {"Date (diffusion)": "30.01.2024", "Lieux": "THERMES DE GUAGNO LES BAINS", "Titre": "Thermes de Guagno les Bains", "Durée / Pages": "6'48''", "Matériel": "CEABRI_6047", "__placement": "centroide_commune", "Commune_match": "guagno"}, "geometry": {"type": "Point", "coordinates": [8.983895638460043, 42.17836497702632]}}, {"type": "Feature", "properties": {"Date (diffusion)": "01.07.2023", "Lieux": "MONTICELLO", "Titre": "Monticello", "Durée / Pages": "6'18''", "Matériel": "CEABRI_6090", "__placement": "centroide_commune", "Commune_match": "monticello"}, "geometry": {"type": "Point", "coordinates": [8.961319175826048, 42.62179123137989]}}, {"type": "Feature", "properties": {"Date (diffusion)": "01.07.2023", "Lieux": "PIGNA", "Titre": "Pigna", "Durée / Pages": "6'24''", "Matériel": "CEABRI_6089", "__placement": "centroide_commune", "Commune_match": "pigna"}, "geometry": {"type": "Point", "coordinates": [8.90041056975359, 42.599340409350994]}}, {"type": "Feature", "properties": {"Date (diffusion)": "01.07.2023", "Lieux": "COMPLEXE SAINT FRANCOIS MONTICELLO", "Titre": "complexe sportif Saint François à Monticello", "Durée / Pages": "1'38''", "Matériel": "CEABRI_6096", "__placement": "centroide_commune", "Commune_match": "monticello"}, "geometry": {"type": "Point", "coordinates": [8.961319175826048, 42.62179123137989]}}, {"type": "Feature", "properties": {"Date (diffusion)": "12.02.2024", "Lieux": "TALASANI", "Titre": "Talasani", "Durée / Pages": "16'29''", "Matériel": "CEABRI_6349", "__placement": "centroide_commune", "Commune_match": "talasani"}, "geometry": {"type": "Point", "coordinates": [9.507317392096912, 42.417878667621814]}}, {"type": "Feature", "properties": {"Date (diffusion)": "12.02.2024", "Lieux": "PERO CASEVECCHIE", "Titre": "Pero Casevecchie", "Durée / Pages": "8'00''", "Matériel": "CEABRI_6348", "__placement": "centroide_commune", "Commune_match": "casevecchie"}, "geometry": {"type": "Point", "coordinates": [9.368063521854639, 42.13553491224023]}}, {"type": "Feature", "properties": {"Date (diffusion)": "12.02.2024", "Lieux": "PLACE DU DIAMANT AJACCIO", "Titre": "Place du Diamant à Ajaccio", "Durée / Pages": "7'49''", "Matériel": "CEABRI_6340", "__placement": "centroide_commune", "Commune_match": "ajaccio"}, "geometry": {"type": "Point", "coordinates": [8.701324680752496, 41.93479298423615]}}, {"type": "Feature", "properties": {"Date (diffusion)": "19.02.2024", "Lieux": "MOCA CROCE", "Titre": "Moca Croce", "Durée / Pages": "2'04''", "Matériel": "CEABRI_6555", "__placement": "centroide_commune", "Commune_match": "croce"}, "geometry": {"type": "Point", "coordinates": [9.357316691799232, 42.407782761127415]}}, {"type": "Feature", "properties": {"Date (diffusion)": "19.02.2024", "Lieux": "GUARGUALE", "Titre": "Guarguale", "Durée / Pages": "5'28''", "Matériel": "CEABRI_6556", "__placement": "centroide_commune", "Commune_match": "guarguale"}, "geometry": {"type": "Point", "coordinates": [8.927611058188354, 41.827638677557495]}}, {"type": "Feature", "properties": {"Date (diffusion)": "17.04.2024", "Lieux": "VEZZANI", "Titre": "Vezzani", "Durée / Pages": "7'56''", "Matériel": "CEABRI_7945", "__placement": "centroide_commune", "Commune_match": "vezzani"}, "geometry": {"type": "Point", "coordinates": [9.292360905165262, 42.15735103549996]}}, {"type": "Feature", "properties": {"Date (diffusion)": "17.04.2024", "Lieux": "NOCETA", "Titre": "Noceta", "Durée / Pages": "4'22''", "Matériel": "CEABRI_7960", "__placement": "centroide_commune", "Commune_match": "noceta"}, "geometry": {"type": "Point", "coordinates": [9.20974491244194, 42.202760179023024]}}, {"type": "Feature", "properties": {"Date (diffusion)": "17.04.2024", "Lieux": "BISINCHI", "Titre": "BISINCHI", "Durée / Pages": "4'24''", "Matériel": "CEABRI_7115", "__placement": "centroide_commune", "Commune_match": "bisinchi"}, "geometry": {"type": "Point", "coordinates": [9.319025667682764, 42.485928605785006]}}, {"type": "Feature", "properties": {"Date (diffusion)": "17.04.2024", "Lieux": "PIETROSO", "Titre": "Pietroso", "Durée / Pages": "2'46''", "Matériel": "CEABRI_8015", "__placement": "centroide_commune", "Commune_match": "pietroso"}, "geometry": {"type": "Point", "coordinates": [9.301017951021478, 42.12562028314226]}}, {"type": "Feature", "properties": {"Date (diffusion)": "23.04.2024", "Lieux": "LUCCIANA", "Titre": "Lucciana", "Durée / Pages": "1'26''", "Matériel": "CEABRI_8059", "__placement": "centroide_commune", "Commune_match": "lucciana"}, "geometry": {"type": "Point", "coordinates": [9.473795962009975, 42.541443656137304]}}, {"type": "Feature", "properties": {"Date (diffusion)": "23.04.2024", "Lieux": "PRISON DE BORGO", "Titre": "Centre Pénitentiaire de Borgo", "Durée / Pages": "1'29''", "Matériel": "CEABRI_8049", "__placement": "centroide_commune", "Commune_match": "borgo"}, "geometry": {"type": "Point", "coordinates": [9.456903900323832, 42.57392952115076]}}, {"type": "Feature", "properties": {"Date (diffusion)": "23.04.2024", "Lieux": "LUCCIANA", "Titre": "Lucciana", "Durée / Pages": "1'24''", "Matériel": "CEABRI_8053", "__placement": "centroide_commune", "Commune_match": "lucciana"}, "geometry": {"type": "Point", "coordinates": [9.473795962009975, 42.541443656137304]}}, {"type": "Feature", "properties": {"Date (diffusion)": "23.04.2024", "Lieux": "BIGUGLIA", "Titre": "Biguglia", "Durée / Pages": "zone industrielle et voie rapide", "Matériel": "9'37'',CEABRI_8061", "__placement": "centroide_commune", "Commune_match": "biguglia"}, "geometry": {"type": "Point", "coordinates": [9.440484446232615, 42.61642121844492]}}, {"type": "Feature", "properties": {"Date (diffusion)": "02.05.2024", "Lieux": "MONTEGROSSO MONTEMAGGIORE", "Titre": "Montemaggiore", "Durée / Pages": "8'44''", "Matériel": "CEABRI_8172", "__placement": "centroide_commune", "Commune_match": "montegrosso"}, "geometry": {"type": "Point", "coordinates": [8.856234739849981, 42.543505355457086]}}, {"type": "Feature", "properties": {"Date (diffusion)": "22.07.2024", "Lieux": "VOLPAJOLA", "Titre": "Volpajola", "Durée / Pages": "12'56''", "Matériel": "CEABRI_9702", "__placement": "centroide_commune", "Commune_match": "volpajola"}, "geometry": {"type": "Point", "coordinates": [9.360715807843947, 42.520011720236795]}}, {"type": "Feature", "properties": {"Date (diffusion)": "06.11.2024", "Lieux": "VIVARIO", "Titre": "Vivario", "Durée / Pages": "9'18''", "Matériel": "CEABRI_11405", "__placement": "centroide_commune", "Commune_match": "vivario"}, "geometry": {"type": "Point", "coordinates": [9.12065597631382, 42.15238131884848]}}, {"type": "Feature", "properties": {"Date (diffusion)": "30.10.2024", "Lieux": "CASONE AJACCIO", "Titre": "Place d'Austerlitz dit du Casone à Ajaccio", "Durée / Pages": "1'20''", "Matériel": "CEABRI_11447", "__placement": "centroide_commune", "Commune_match": "ajaccio"}, "geometry": {"type": "Point", "coordinates": [8.701324680752496, 41.93479298423615]}}, {"type": "Feature", "properties": {"Date (diffusion)": "13.01.2025", "Lieux": "OLIVESE", "Titre": "Olivese", "Durée / Pages": "5'53''", "Matériel": "CEABRI_13391", "__placement": "centroide_commune", "Commune_match": "olivese"}, "geometry": {"type": "Point", "coordinates": [9.068852342111008, 41.840437109339916]}}, {"type": "Feature", "properties": {"Date (diffusion)": "13.01.2025", "Lieux": "ZIGLIARA", "Titre": "Zigliara", "Durée / Pages": "5'41''", "Matériel": "CEABRI_13390", "__placement": "centroide_commune", "Commune_match": "zigliara"}, "geometry": {"type": "Point", "coordinates": [8.98375822554259, 41.83467090827942]}}, {"type": "Feature", "properties": {"Date (diffusion)": "13.01.2025", "Lieux": "FORCIOLO", "Titre": "Forciolo", "Durée / Pages": "1'55''", "Matériel": "CEABRI_13389", "__placement": "centroide_commune", "Commune_match": "forciolo"}, "geometry": {"type": "Point", "coordinates": [9.01587229934593, 41.84814345753545]}}, {"type": "Feature", "properties": {"Date (diffusion)": "14.01.2025", "Lieux": "NONZA", "Titre": "Nonza", "Durée / Pages": "12'11''", "Matériel": "CEABRI_12852", "__placement": "centroide_commune", "Commune_match": "nonza"}, "geometry": {"type": "Point", "coordinates": [9.354421084284061, 42.78829846704356]}}, {"type": "Feature", "properties": {"Date (diffusion)": "06.11.2024", "Lieux": "VIVARIO", "Titre": "Vivario", "Durée / Pages": "9'18''", "Matériel": "CEABRI_11405", "__placement": "centroide_commune", "Commune_match": "vivario"}, "geometry": {"type": "Point", "coordinates": [9.12065597631382, 42.15238131884848]}}, {"type": "Feature", "properties": {"Date (diffusion)": "25.11.2024", "Lieux": "CORTE", "Titre": "Haute ville de Corte", "Durée / Pages": "10'58''", "Matériel": "CEABRI_11863", "__placement": "centroide_commune", "Commune_match": "corte"}, "geometry": {"type": "Point", "coordinates": [9.082894162119654, 42.270069872045816]}}, {"type": "Feature", "properties": {"Date (diffusion)": "27.09.2024", "Lieux": "BARRAGE DE FIGARI", "Titre": "Barrage de Figari", "Durée / Pages": "13'32''", "Matériel": "CEABRI_10677", "__placement": "centroide_commune", "Commune_match": "figari"}, "geometry": {"type": "Point", "coordinates": [9.120583147067386, 41.51629165442777]}}, {"type": "Feature", "properties": {"Date (diffusion)": "14.08.2024", "Lieux": "VICO", "Titre": "Vico", "Durée / Pages": "2'21''", "Matériel": "CEABRI_9932", "__placement": "centroide_commune", "Commune_match": "vico"}, "geometry": {"type": "Point", "coordinates": [8.730510537391568, 42.15063856342747]}}, {"type": "Feature", "properties": {"Date (diffusion)": "22.07.2024", "Lieux": "VOLPAJOLA", "Titre": "Volpajola", "Durée / Pages": "12'56''", "Matériel": "CEABRI_9702", "__placement": "centroide_commune", "Commune_match": "volpajola"}, "geometry": {"type": "Point", "coordinates": [9.360715807843947, 42.520011720236795]}}, {"type": "Feature", "properties": {"Date (diffusion)": "25.01.2024", "Lieux": "SISCO", "Titre": "Sisco", "Durée / Pages": "4'16''", "Matériel": "CEABRI_14155", "__placement": "centroide_commune", "Commune_match": "sisco"}, "geometry": {"type": "Point", "coordinates": [9.442247316327505, 42.81447558284365]}}, {"type": "Feature", "properties": {"Date (diffusion)": "25.01.2024", "Lieux": "MERIA", "Titre": "Meria", "Durée / Pages": "2'19''", "Matériel": "CEABRI_14152", "__placement": "centroide_commune", "Commune_match": "meria"}, "geometry": {"type": "Point", "coordinates": [9.43681747279001, 42.92000199877087]}}, {"type": "Feature", "properties": {"Date (diffusion)": "21.06.2024", "Lieux": "SERMANO", "Titre": "Sermano", "Durée / Pages": "6'57''", "Matériel": "CEABRI_14169", "__placement": "centroide_commune", "Commune_match": "sermano"}, "geometry": {"type": "Point", "coordinates": [9.266211298131443, 42.31570991259934]}}, {"type": "Feature", "properties": {"Date (diffusion)": "08/04/2025", "Lieux": "CASABIANCA", "Titre": "Le Couvent de Casabianca", "Durée / Pages": "54'54''", "Matériel": "CEABRI_14518", "__placement": "centroide_commune", "Commune_match": "casabianca"}, "geometry": {"type": "Point", "coordinates": [9.372169107891997, 42.44720560211981]}}, {"type": "Feature", "properties": {"Date (diffusion)": "30/07/2024", "Lieux": "GALERIA CORSE", "Titre": "Différentes vues du littoral entre Galeria et Cargese", "Durée / Pages": "26'41''", "Matériel": "CEABRI_14929", "__placement": "centroide_commune", "Commune_match": "galeria"}, "geometry": {"type": "Point", "coordinates": [8.70709703865816, 42.40820587089869]}}, {"type": "Feature", "properties": {"Date (diffusion)": "04/07/2025", "Lieux": "VERO CORSE", "Titre": "Le village de Vero", "Durée / Pages": "24'24''", "Matériel": "OM_1_16610", "__placement": "centroide_commune", "Commune_match": "vero"}, "geometry": {"type": "Point", "coordinates": [8.921821450782668, 42.06106121596283]}}, {"type": "Feature", "properties": {"Date (diffusion)": "04/07/2025", "Lieux": "TAVACO", "Titre": "Tavaco", "Durée / Pages": "13'54''", "Matériel": "OM_1_16609", "__placement": "centroide_commune", "Commune_match": "tavaco"}, "geometry": {"type": "Point", "coordinates": [8.884358457317639, 42.03152282702581]}}, {"type": "Feature", "properties": {"Date (diffusion)": "18/07/2025", "Lieux": "MARIGNANA", "Titre": "Marignana", "Durée / Pages": "14'45''", "Matériel": "OM_1_16426", "__placement": "centroide_commune", "Commune_match": "marignana"}, "geometry": {"type": "Point", "coordinates": [8.720122306526989, 42.20832683226989]}}, {"type": "Feature", "properties": {"Date (diffusion)": "25/07/2025", "Lieux": "PATRIMONIO,Patrimonio", "Titre": "théatre de verdure et vignobles", "Durée / Pages": "20'24''", "Matériel": "OM_1_16513", "__placement": "centroide_commune", "Commune_match": "patrimonio"}, "geometry": {"type": "Point", "coordinates": [9.36705279298152, 42.70668737016182]}}, {"type": "Feature", "properties": {"Date (diffusion)": "01/08/2025", "Lieux": "SOLLACARO", "Titre": "Sollacaro", "Durée / Pages": "15'38''", "Matériel": "OM_1_16579", "__placement": "centroide_commune", "Commune_match": "sollacaro"}, "geometry": {"type": "Point", "coordinates": [8.88010222678789, 41.74177076069176]}}, {"type": "Feature", "properties": {"Date (diffusion)": "14/08/2025", "Lieux": "AMBIEGNA", "Titre": "Ambiegna", "Durée / Pages": "25'29''", "Matériel": "OM_1_16718", "__placement": "centroide_commune", "Commune_match": "ambiegna"}, "geometry": {"type": "Point", "coordinates": [8.773837107884482, 42.087800363897514]}}, {"type": "Feature", "properties": {"Date (diffusion)": "15/08/2025", "Lieux": "CRISTINACCE", "Titre": "Cristinacce", "Durée / Pages": "20'14''", "Matériel": "OM_1_16717", "__placement": "centroide_commune", "Commune_match": "cristinacce"}, "geometry": {"type": "Point", "coordinates": [8.85509204955514, 42.24340127280418]}}, {"type": "Feature", "properties": {"Date (diffusion)": "18.11.2025", "Lieux": "IUT CORTE", "Titre": "Université de Corte - Batiment IUT", "Durée / Pages": "3'41''", "Matériel": "OM_1_18484", "__placement": "centroide_commune", "Commune_match": "corte"}, "geometry": {"type": "Point", "coordinates": [9.082894162119654, 42.270069872045816]}}, {"type": "Feature", "properties": {"Date (diffusion)": "18.11.2025", "Lieux": "VENACO", "Titre": "Village de Venaco", "Durée / Pages": "4'14''", "Matériel": "OM_1_18483", "__placement": "centroide_commune", "Commune_match": "venaco"}, "geometry": {"type": "Point", "coordinates": [9.137541730057919, 42.213994860802806]}}, {"type": "Feature", "properties": {"Date (diffusion)": "18.11.2025", "Lieux": "VIVARIO", "Titre": "Village de VIvario et fortin de Pasciola", "Durée / Pages": "6'49''", "Matériel": "OM_1_18485", "__placement": "centroide_commune", "Commune_match": "vivario"}, "geometry": {"type": "Point", "coordinates": [9.12065597631382, 42.15238131884848]}}, {"type": "Feature", "properties": {"Date (diffusion)": "07.11.2025", "Lieux": "NAVETTE MARITIME AJACCIO PORTICCIO", "Titre": "La navette maritime Naveva", "Durée / Pages": "17'27''", "Matériel": "OM_1_18253", "__placement": "centroide_commune", "Commune_match": "ajaccio"}, "geometry": {"type": "Point", "coordinates": [8.701324680752496, 41.93479298423615]}}, {"type": "Feature", "properties": {"Date (diffusion)": "07.11.2025", "Lieux": "TELEPORTE ANGELO AJACCIO", "Titre": "Le téléporté Angelo", "Durée / Pages": "4'54''", "Matériel": "OM_1_18251", "__placement": "centroide_commune", "Commune_match": "ajaccio"}, "geometry": {"type": "Point", "coordinates": [8.701324680752496, 41.93479298423615]}}, {"type": "Feature", "properties": {"Date (diffusion)": "15.11.2025", "Lieux": "BOCOGNANO", "Titre": "Bocognano en automne et infrastructures routières", "Durée / Pages": "24'04''", "Matériel": "OM_1_18398", "__placement": "centroide_commune", "Commune_match": "bocognano"}, "geometry": {"type": "Point", "coordinates": [9.071005540026851, 42.088742591859386]}}, {"type": "Feature", "properties": {"Date (diffusion)": "07.112025", "Lieux": "TRAIN CFC AJACCIO", "Titre": "Circulation du train depuis Ajaccio", "Durée / Pages": "12'46''", "Matériel": "OM_1_18250", "__placement": "centroide_commune", "Commune_match": "ajaccio"}, "geometry": {"type": "Point", "coordinates": [8.701324680752496, 41.93479298423615]}}, {"type": "Feature", "properties": {"Date (diffusion)": "04.02.2026", "Lieux": "CUTTOLI-CORTICCHIATO", "Titre": "Cuttoli-Corticchiato", "Durée / Pages": "20'02''", "Matériel": "OM_1_20033", "__placement": "centroide_commune", "Commune_match": "cuttoli-corticchiato"}, "geometry": {"type": "Point", "coordinates": [8.884063900699276, 41.97673261119286]}}, {"type": "Feature", "properties": {"Date (diffusion)": "04.02.2026", "Lieux": "SARROLA-CARCOPINO", "Titre": "Sarrola-Carcopino", "Durée / Pages": "11'29''", "Matériel": "OM_1_20032", "__placement": "centroide_commune", "Commune_match": "sarrola-carcopino"}, "geometry": {"type": "Point", "coordinates": [8.834378930345842, 42.00101593437332]}}]}